id,city,lat,lng,Cloudiness,Country,Date,Humidity,Windspeed,MaxTemp
1,Jamestown,-33.21,138.6,0,AU,1569806869,49,4.48,16.53
2,Northam,-31.65,116.67,75,AU,1569806869,100,0.5,17
3,Kapaa,22.08,-159.32,75,US,1569806869,58,7.7,32
4,Hermanus,-34.42,19.24,2,ZA,1569806869,97,3.6,13.89
5,Alofi,-19.06,-169.92,52,NU,1569806870,94,7.7,24
6,Khatanga,71.98,102.47,51,RU,1569806870,82,3.11,-4.37
7,Puerto Escondido,15.86,-97.07,90,MX,1569806870,65,2.6,26
8,Thompson,55.74,-97.86,75,CA,1569806665,64,1.72,2
9,Dingle,11,122.67,100,PH,1569806870,76,1.79,27.07
10,Cape Town,-33.93,18.42,20,ZA,1569806821,87,2.6,15
11,Kesinga,20.19,83.22,100,IN,1569806871,97,2.1,22.45
12,Busselton,-33.64,115.35,3,AU,1569806871,55,5.1,20
13,Dikson,73.51,80.55,87,RU,1569806871,76,2.7,-0.59
14,Monrovia,6.33,-10.8,40,LR,1569806872,94,2.32,25
15,Ahipara,-35.17,173.16,3,NZ,1569806872,84,10.39,15.18
16,Inuvik,68.36,-133.71,75,CA,1569806872,49,3.6,8
17,Tuktoyaktuk,69.44,-133.03,40,CA,1569806872,70,3.6,6
18,Rochegda,62.67,43.41,92,RU,1569806872,89,3.86,3.5
19,Provideniya,64.42,-173.23,0,RU,1569806873,81,2,8
20,Bluff,-23.58,149.07,32,AU,1569806693,25,3.74,28.79
21,Katsuura,33.93,134.5,75,JP,1569806873,78,4.6,27
22,Georgetown,6.8,-58.16,0,GY,1569806873,78,4.1,28
23,Port Alfred,-33.59,26.89,100,ZA,1569806873,90,2.68,15.56
24,Lamu,35.77,102.37,31,CN,1569806873,48,0.18,8.96
25,Mount Isa,-20.73,139.49,0,AU,1569806874,10,8.7,34
26,Atuona,-9.8,-139.03,10,PF,1569806874,80,8.17,26.36
27,Palanga,44.45,25.08,0,RO,1569806874,53,1.85,17.27
28,Ushuaia,-54.81,-68.31,75,AR,1569806672,97,5.7,0
29,Kiama,-34.67,150.86,75,AU,1569806875,54,6.7,16.11
30,Longyearbyen,78.22,15.63,75,NO,1569806875,64,7.7,1
31,Virginia Beach,36.85,-75.98,40,US,1569806754,88,6.2,23.89
32,Saint-Philippe,45.36,-73.48,1,CA,1569806875,93,0.73,10
33,Nanortalik,60.14,-45.24,0,GL,1569806783,88,1.11,4.08
34,Camacha,33.08,-16.33,40,PT,1569806875,72,1.5,21
35,Hobart,-42.88,147.33,40,AU,1569806724,40,6.2,12
36,Mahebourg,-20.41,57.7,40,MU,1569806876,88,1.5,21
37,Port Hardy,50.7,-127.42,5,CA,1569806876,47,1,13
38,Vaini,15.34,74.49,40,IN,1569806682,94,1.15,21
39,Kavieng,-2.57,150.8,53,PG,1569806876,70,1.02,28.09
40,Marawi,8,124.29,100,PH,1569806877,73,1.79,27.78
41,Cooma,-36.24,149.13,80,AU,1569806877,51,4.6,9
42,Kulhudhuffushi,6.62,73.07,100,MV,1569806877,77,3.54,26.55
43,San Patricio,-26.98,-56.83,0,PY,1569806877,45,3.13,23.02
44,Nikolskoye,59.7,30.79,75,RU,1569806878,87,2,11
45,Lompoc,34.64,-120.46,1,US,1569806878,59,7.2,21.11
46,Rikitea,-23.12,-134.97,98,PF,1569806585,75,5.21,21.28
47,Tuatapere,-46.13,167.69,55,NZ,1569806878,71,8.94,9.44
48,Batagay-Alyta,67.8,130.41,26,RU,1569806878,76,0.3,-10.54
49,Puerto Ayora,-0.74,-90.35,20,EC,1569806715,64,6.2,23
50,Abalak,15.46,6.28,91,NE,1569806879,10,2.03,32.36
51,Plettenberg Bay,-34.05,23.37,100,ZA,1569806879,89,2.21,11.61
52,Kodiak,39.95,-94.76,20,US,1569806879,78,6.2,26.11
53,Hofn,64.25,-15.21,0,IS,1569806879,68,5.64,-0.85
54,New Norfolk,-42.78,147.06,40,AU,1569806880,40,6.2,12
55,Nicoya,10.15,-85.45,0,CR,1569806880,74,2.1,28
56,Lakselv,70.05,24.96,100,NO,1569806880,94,8.7,3
57,Bredasdorp,-34.53,20.04,86,ZA,1569806880,87,3.1,11.11
58,Yellowknife,62.45,-114.38,20,CA,1569806881,56,5.7,7
59,Mtinko,-4.55,34.84,100,TZ,1569806881,68,4.1,18.36
60,Montepuez,-13.13,39,9,MZ,1569806881,90,1.96,20.12
61,Blagoyevo,63.37,47.92,100,RU,1569806881,82,3.51,3.29
62,Chino Valley,34.76,-112.45,1,US,1569806805,42,5.7,22.78
63,Walvis Bay,-22.95,14.51,0,NA,1569806881,100,3.1,17.22
64,Coos Bay,43.37,-124.22,40,US,1569806882,76,3.6,13.33
65,Kerema,-7.96,145.78,65,PG,1569806882,84,1.49,26.21
66,El Alto,-16.5,-68.19,9,BO,1569806882,52,2.1,6
67,Nizwa,22.93,57.53,23,OM,1569806882,65,0.2,23.9
68,Dawson,39.85,-89.46,1,US,1569806883,94,2.6,23.89
69,Morondava,-20.3,44.28,0,MG,1569806883,73,3.61,21.87
70,Fuerte Olimpo,-21.04,-57.87,17,BR,1569806883,39,1.93,28.85
71,Geraldton,49.72,-86.95,90,CA,1569806883,65,3.1,5
72,Vangaindrano,-23.35,47.6,99,MG,1569806883,96,0.72,20.6
73,Avarua,-21.21,-159.78,57,CK,1569806884,60,6.2,24
74,Rawson,-43.3,-65.11,31,AR,1569806884,22,5.48,15.12
75,Arroyo,-11.08,-66.08,89,BO,1569806884,61,2.51,27.85
76,Moroni,35.09,24.92,20,GR,1569806885,88,3.1,19.44
77,Carbonia,39.17,8.53,20,IT,1569806885,82,1.5,21.11
78,Kenai,60.55,-151.26,90,US,1569806650,93,2.6,10.56
79,Cabinda,-5.56,12.19,36,AO,1569806885,82,6.69,24.72
80,Kovur,14.5,79.99,96,IN,1569806885,85,2.23,24.75
81,Chuy,-33.69,-53.46,0,UY,1569806754,88,6.09,15.64
82,Naryan-Mar,67.67,53.09,100,RU,1569806886,92,6.92,6.4
83,Cabo San Lucas,22.89,-109.91,75,MX,1569806681,73,7.7,28.89
84,Albany,42.65,-73.75,75,US,1569806653,54,1.5,12.22
85,Makakilo City,21.35,-158.09,1,US,1569806846,52,4.1,31
86,Punta Arenas,-53.16,-70.91,40,CL,1569806886,55,8.7,3
87,Bukachacha,52.99,116.91,45,RU,1569806887,74,1.48,5.61
88,Port Elizabeth,39.31,-74.98,1,US,1569806887,82,2.1,23
89,Severo-Kurilsk,50.68,156.12,95,RU,1569806887,96,6.92,9.37
90,Hilo,19.71,-155.08,20,US,1569806887,58,4.6,30
91,Arlit,18.74,7.39,0,NE,1569806887,10,3.65,33.74
92,Lavrentiya,65.58,-170.99,64,RU,1569806888,74,3.47,5.49
93,Bethel,60.79,-161.76,75,US,1569806730,71,8.2,11
94,Beipiao,41.8,120.76,13,CN,1569806888,53,2.66,19.58
95,Cherskiy,68.75,161.3,98,RU,1569806888,78,1.56,-0.61
96,East London,-33.02,27.91,100,ZA,1569806889,83,6.49,13.81
97,Akdepe,42.05,59.39,0,TM,1569806889,47,4.1,14
98,Vila,45.18,8.4,0,IT,1569806889,93,1,18.89
99,Ulaangom,49.98,92.07,100,MN,1569806889,69,3.35,7.33
100,Mayo,63.59,-135.9,90,CA,1569806889,52,1.5,6
101,Hithadhoo,-0.6,73.08,13,MV,1569806890,73,4.61,27.58
102,San Ramon,12.92,-85.84,20,NI,1569806890,93,0.88,21.21
103,Pacific Grove,36.62,-121.92,1,US,1569806677,52,4.1,18
104,Takoradi,4.89,-1.75,82,GH,1569806890,98,1.7,23.06
105,Naze,5.43,7.07,40,NG,1569806890,94,1.34,24
106,Jacareacanga,-6.22,-57.76,90,BR,1569806891,73,0.82,24.52
107,Airai,-8.93,125.41,2,TL,1569806891,33,0.67,28.85
108,Mar del Plata,-46.43,-67.52,24,AR,1569806885,30,15.13,9.75
109,Soligalich,59.08,42.29,100,RU,1569806891,94,4.51,7.93
110,Taywarah,33.35,64.42,0,AF,1569806892,46,3.17,8.94
111,Lakes Entrance,-37.88,147.99,95,AU,1569806892,55,0.45,14.44
112,Barrow,-38.31,-60.23,51,AR,1569806892,98,2.72,14.71
113,Mehamn,71.03,27.85,94,NO,1569806892,81,3.27,2.59
114,Mattru,7.62,-11.83,100,SL,1569806893,97,1.65,22.86
115,Bima,-8.45,118.73,69,ID,1569806893,60,2.28,25.78
116,Castro,-42.48,-73.76,75,CL,1569806893,86,5.1,5
117,Qaanaaq,77.48,-69.36,91,GL,1569806893,66,2.91,0.3
118,Ucluelet,48.94,-125.55,20,CA,1569806803,30,2.6,15
119,Torbay,47.66,-52.73,75,CA,1569806894,100,10.3,12.22
120,Whitehorse,60.72,-135.06,75,CA,1569806894,37,7.2,12
121,Flums,47.09,9.34,90,CH,1569806894,77,2.6,21
122,Faanui,-16.48,-151.75,1,PF,1569806894,80,8.79,25.03
123,Solnechnyy,50.72,136.64,3,RU,1569806894,55,0.19,10.47
124,Bulgan,48.81,103.53,77,MN,1569806895,58,3.66,8.94
125,Kruisfontein,-34,24.73,100,ZA,1569806895,81,6.48,11.96
126,Ribeira Grande,38.52,-28.7,16,PT,1569806895,80,4.97,22.19
127,Goundam,16.42,-3.66,0,ML,1569806895,16,4.59,34.1
128,Paita,-5.09,-81.11,8,PE,1569806896,94,7.99,17.95
129,Danville,37.82,-122,20,US,1569806896,55,5.1,17.78
130,Haines Junction,60.75,-137.51,85,CA,1569806896,37,3.89,6.26
131,Maceio,-9.67,-35.74,20,BR,1569806867,94,1.7,22
132,Berlevag,70.86,29.09,100,NO,1569806896,81,4.59,4.78
133,Harbour Breton,47.48,-55.8,46,CA,1569806897,80,10.18,11.41
134,Butaritari,3.07,172.79,67,KI,1569806723,67,4.57,29.39
135,Tucupita,9.06,-62.05,97,VE,1569806897,90,2.17,25.61
136,Lata,30.78,78.62,78,IN,1569806897,83,1.57,0.5
137,Khvastovichi,53.47,35.09,41,RU,1569806897,97,3.27,8.14
138,Esperance,-33.86,121.89,0,AU,1569806898,63,7.7,19
139,Kaitangata,-46.28,169.85,97,NZ,1569806862,49,6.71,11.11
140,Belyy Yar,53.6,91.39,0,RU,1569806898,60,8,4
141,Sajanan,37.06,9.24,0,TN,1569806898,100,1.5,17
142,Port Hedland,-20.31,118.58,0,AU,1569806898,20,8.7,31
143,Port Blair,11.67,92.75,40,IN,1569806899,94,1,26
144,Katobu,-4.94,122.53,51,ID,1569806899,63,2.44,27.33
145,Najran,17.54,44.22,40,SA,1569806899,43,1.36,22
146,Vila Velha,-3.71,-38.6,75,BR,1569806899,78,4.1,26
147,Karasjok,69.47,25.52,100,NO,1569806899,95,8.7,2
148,Smithers,54.78,-127.17,20,CA,1569806900,29,1.5,10
149,Shache,38.42,77.24,0,CN,1569806900,17,2.95,19.6
150,Imbituba,-28.24,-48.67,75,BR,1569806881,82,5.1,20
151,Port Lincoln,-34.72,135.86,0,AU,1569806679,79,8.63,12.78
152,Carnarvon,-30.97,22.13,43,ZA,1569806900,64,10.25,8.78
153,Axim,4.87,-2.24,84,GH,1569806901,94,3.36,24.46
154,Pangai,-19.8,-174.35,75,TO,1569806901,74,7.2,26
155,Horta,-10.93,-37.66,20,BR,1569806901,78,3.1,25
156,Monaco-Ville,43.73,7.42,0,FR,1569806901,72,3.1,21
157,Iguape,-24.7,-47.56,40,BR,1569806902,93,1.55,17.73
158,Roald,62.58,6.12,100,NO,1569806902,87,5.1,7
159,Manzhouli,49.6,117.43,92,CN,1569806902,77,3.91,11.9
160,Igrim,63.19,64.42,100,RU,1569806903,96,2.73,2.96
161,Vilhena,-12.74,-60.15,56,BR,1569806678,69,1.19,24.87
162,Mataura,-46.19,168.86,76,NZ,1569806903,71,8.94,9.44
163,Nevsehir,38.62,34.71,0,TR,1569806903,66,1.5,9
164,Offa,5.92,-4.35,67,CI,1569806903,99,1.09,22.19
165,Taltal,-25.41,-70.49,5,CL,1569806904,91,1.51,10.56
166,Salamiyah,35.01,37.05,0,SY,1569806904,89,1.48,16.4
167,Sharan,33.15,68.78,0,AF,1569806904,87,0.73,11.53
168,Bambous Virieux,-20.34,57.76,40,MU,1569806904,88,1.5,21
169,Middelburg,51.5,3.61,100,NL,1569806904,72,13.9,15
170,Oum Hadjer,13.3,19.7,100,TD,1569806905,83,6.34,24.4
171,Greeley,41.55,-98.53,20,US,1569806905,69,7.2,27
172,Karlovac,45.49,15.55,0,HR,1569806905,87,1.5,16.67
173,Kununurra,-15.77,128.74,5,AU,1569806905,46,2.6,32
174,Gijon,43.54,-5.66,96,ES,1569806906,93,0.5,18.89
175,Irtyshskiy,58.33,68.13,99,RU,1569806906,97,2.91,2.01
176,Salina,38.84,-97.61,1,US,1569806906,74,7.2,27
177,Henties Bay,-22.12,14.28,0,NA,1569806906,87,2.68,17.22
178,Tabas,33.6,56.92,0,IR,1569806906,17,1,24
179,Gniezno,52.54,17.6,90,PL,1569806907,82,2.6,16.11
180,Concordia,-31.4,-58.02,0,AR,1569806907,50,7.15,22.22
181,Ancud,-41.87,-73.83,75,CL,1569806907,86,5.1,5
182,Caravelas,-17.73,-39.27,96,BR,1569806907,85,5.27,22.67
183,Ulaanbaatar,47.92,106.92,75,MN,1569806631,81,1,7
184,Elko,40.83,-115.76,1,US,1569806795,52,1.5,6
185,Cayenne,4.94,-52.33,0,GF,1569806908,88,1,27
186,Eureka,40.8,-124.16,75,US,1569806644,87,2.6,13.33
187,Chokurdakh,70.62,147.9,87,RU,1569806908,88,2.57,-2.52
188,Matara,-3.48,29.48,19,BI,1569806908,86,1.33,11.59
189,Namatanai,-3.66,152.44,97,PG,1569806909,75,3.31,27.07
190,Saint-Pierre,48.95,4.24,90,FR,1569806909,82,6.7,15
191,Jardim,-21.48,-56.15,4,BR,1569806909,38,2.33,26.29
192,Los Llanos de Aridane,28.66,-17.92,90,ES,1569806909,78,5.7,23
193,Portland,43.66,-70.25,1,US,1569806615,41,5.1,14
194,Saldanha,41.42,-6.55,0,PT,1569806910,83,0.94,17.38
195,Beringovskiy,63.05,179.32,6,RU,1569806910,58,3.16,4.93
196,Leningradskiy,69.38,178.42,5,RU,1569806910,67,4.81,0.62
197,Sovetskiy,56.76,48.47,72,RU,1569806910,96,4.62,2.58
198,Miraflores,-16.39,-71.52,0,PE,1569806911,58,1.5,13
199,Port Macquarie,-31.43,152.91,90,AU,1569806911,63,4.6,21.11
200,Labytnangi,66.66,66.39,100,RU,1569806911,93,2.78,-2.59
201,Tucuman,-17.17,-70.89,0,PE,1569806911,72,0.64,9.39
202,Veraval,49.65,0.71,82,FR,1569806912,93,3.1,14.44
203,Beyneu,45.32,55.19,40,KZ,1569806912,50,1.93,12.4
204,Pundaguitan,6.37,126.17,100,PH,1569806912,78,4.48,27.99
205,Camacupa,-12.02,17.48,54,AO,1569806912,77,2.73,16.05
206,San Clemente,33.43,-117.61,1,US,1569806913,63,2.1,20.56
207,Itarema,-2.92,-39.92,14,BR,1569806913,79,4.74,24.43
208,Meulaboh,4.14,96.13,100,ID,1569806913,81,1.63,25.93
209,Kalmunai,7.42,81.82,60,LK,1569806913,91,0.99,22.76
210,Kargil,34.56,76.13,56,PK,1569806913,68,3.03,5.03
211,Biak,-0.91,122.88,100,ID,1569806914,93,1.97,19.02
212,Novyy Urengoy,66.08,76.63,94,RU,1569806686,74,3.04,-0.64
213,Quelimane,-17.88,36.89,20,MZ,1569806914,85,1.93,20.39
214,Tasiilaq,65.61,-37.64,0,GL,1569806690,60,1.23,4
215,Siguiri,11.42,-9.17,4,GN,1569806914,78,0.58,24.19
216,Nakamura,35.17,136.87,40,JP,1569806915,69,2.6,32.78
217,Champerico,16.38,-93.6,75,MX,1569806915,88,3.1,24
218,Koslan,63.46,48.9,99,RU,1569806915,82,3.57,3.06
219,Flinders,-34.58,150.85,75,AU,1569806915,54,6.7,18.33
220,Nelson Bay,-32.72,152.14,75,AU,1569806916,59,4.1,19
221,Sao Joao da Barra,-21.64,-41.05,100,BR,1569806916,94,2.12,19.21
222,Nkayi,-4.18,13.29,83,CG,1569806916,76,2.27,24.29
223,Lubao,-5.39,25.75,100,CD,1569806916,91,2.95,21.89
224,Hasaki,35.73,140.83,75,JP,1569806917,65,6.2,27.78
225,San Quintin,17.54,120.52,100,PH,1569806917,85,1.18,25.61
226,Arman,59.7,150.17,100,RU,1569806917,93,5.07,-1.68
227,Yakeshi,49.28,120.73,100,CN,1569806917,74,1.89,7.39
228,Sompeta,18.93,84.6,100,IN,1569806917,84,1.33,24.19
229,Puri,-7.54,112.45,84,ID,1569806918,66,6.01,26.7
230,Ocos,14.51,-92.19,90,GT,1569806918,94,7.8,27
231,San Cristobal,14.68,-86.92,12,HN,1569806918,86,2.57,21.47
232,Nabire,-3.36,135.5,18,ID,1569806918,72,0.59,26.85
233,Bokajan,26.02,93.78,100,IN,1569806918,99,0.53,20.99
234,Avera,33.19,-82.53,1,US,1569806919,65,0.11,28.33
235,Fortuna,40.6,-124.16,90,US,1569806785,87,4.1,13.33
236,Lorengau,-2.02,147.27,94,PG,1569806919,66,1.98,28.8
237,Kahului,20.89,-156.47,40,US,1569806919,55,10.3,31
238,Pisco,-13.71,-76.2,0,PE,1569806919,88,6.2,17.22
239,Yatou,3.63,9.81,40,CM,1569806919,100,1.5,24
240,Forestville,48.74,-69.09,75,CA,1569806920,56,7.7,7
241,Manavalakurichi,8.13,77.3,75,IN,1569806920,100,1.5,25
242,Alghero,40.56,8.32,0,IT,1569806920,93,1,18.33
243,Bubaque,11.28,-15.83,84,GW,1569806920,83,5.61,27.37
244,Biltine,14.53,20.93,92,TD,1569806921,58,5.18,26.28
245,Belmonte,40.36,-7.35,0,PT,1569806921,72,0.44,14.44
246,Yumen,40.29,97.04,33,CN,1569806921,19,3.13,17.63
247,Aldan,58.61,125.39,100,RU,1569806921,98,1.47,1.73
248,Nizhneudinsk,54.91,99.03,100,RU,1569806921,95,0.7,3.66
249,Conakry,9.52,-13.7,75,GN,1569806922,88,4.1,25
250,Bratsk,56.15,101.63,20,RU,1569806922,69,2,3
251,Lucapa,-8.42,20.74,18,AO,1569806922,80,3.08,21.14
252,Eydhafushi,5.1,73.07,100,MV,1569806922,79,3.11,25.74
253,Flamanzi,47.56,26.89,0,RO,1569806923,81,4.1,13
254,Heyang,26.1,107.47,26,CN,1569806923,73,0.79,17.17
255,Ayan,38.23,44.7,0,IR,1569806923,66,2.1,12
256,Sur,22.57,59.53,0,OM,1569806923,60,4.02,28.78
257,Tilichiki,60.47,166.1,99,RU,1569806898,69,8,6.61
258,Viedma,-40.81,-62.99,100,AR,1569806924,28,2.54,16.11
259,Otaru,43.18,140.99,20,JP,1569806924,77,1.5,23.89
260,Mahajanga,-15.72,46.32,20,MG,1569806924,88,1.06,24
261,Les Cayes,18.19,-73.75,77,HT,1569806924,72,0.62,28.6
262,Tiksi,71.64,128.87,48,RU,1569806883,89,2.27,-3.94
263,Taoudenni,22.68,-3.98,16,ML,1569806925,9,5.64,35.81
264,La Ronge,55.1,-105.3,75,CA,1569806925,52,2.6,5
265,Vredendal,-31.68,18.49,0,ZA,1569806925,79,9.73,14.67
266,Burgos,42.34,-3.7,1,ES,1569806698,76,1,13.89
267,Ponta do Sol,-20.63,-46,0,BR,1569806820,70,1.16,19.41
268,Cap-Chat,49.1,-66.68,34,CA,1569806926,67,7.93,7.97
269,Inhambane,-23.87,35.38,19,MZ,1569806926,78,4.27,19.86
270,Puerto Ayacucho,5.66,-67.63,75,CO,1569806926,94,5.01,25
271,Saint Anthony,43.97,-111.68,90,US,1569806926,47,4.6,6
272,Laguna,16.17,-88.94,40,BZ,1569806927,83,1.36,28
273,Bara,10.41,10.6,100,NG,1569806927,89,3.81,22.25
274,Pevek,69.7,170.27,100,RU,1569806927,89,8.08,-0.5
275,Codrington,-28.95,153.24,40,AU,1569806927,53,3.1,25
276,Talnakh,69.49,88.39,75,RU,1569806927,92,1,-1
277,Kieta,-6.22,155.63,83,PG,1569806928,70,2.21,28.69
278,Pramanta,39.52,21.1,0,GR,1569806928,100,0.5,16.11
279,Trairi,-3.28,-39.27,12,BR,1569806928,86,2.76,22.45
280,Hamilton,43.26,-79.87,90,CA,1569806695,76,7.7,14.44
281,Aksum,14.12,38.72,55,ET,1569806929,76,2.3,17.43
282,Effingham,39.12,-88.54,1,US,1569806832,61,1.5,26.67
283,Ostrovnoy,68.05,39.51,100,RU,1569806929,90,5.3,5.66
284,College,64.86,-147.8,90,US,1569806929,93,1.5,11
285,Lebu,8.96,38.73,80,ET,1569806929,91,0.21,11.56
286,Beloha,-25.17,45.06,21,MG,1569806929,88,2.2,18.53
287,Pahrump,36.21,-115.98,1,US,1569806903,13,4.1,20
288,Isangel,-19.55,169.27,75,VU,1569806930,74,2.6,27
289,Bonthe,7.53,-12.5,100,SL,1569806930,91,2.44,23.72
290,Sawtell,-30.38,153.1,40,AU,1569806930,72,4.6,23
291,Camiri,-20.04,-63.52,0,BO,1569806930,53,1.3,19.63
292,Oneonta,42.45,-75.06,96,US,1569806885,86,2.07,13.89
293,Griffith,-34.29,146.06,100,AU,1569806931,41,4.6,16.11
294,Hambantota,6.12,81.12,20,LK,1569806931,100,1,23
295,Durania,7.71,-72.66,40,CO,1569806931,88,2.1,26
296,Sibut,5.73,19.09,90,CF,1569806931,97,0.62,20.34
297,Shingu,33.72,135.99,40,JP,1569806912,70,3.1,29
298,Rocha,-34.48,-54.34,0,UY,1569806932,88,4.32,14.48
299,Norman Wells,65.28,-126.83,75,CA,1569806845,37,1.5,10
300,Upernavik,72.79,-56.15,0,GL,1569806932,58,4.45,5.04
301,Houma,35.63,111.36,0,CN,1569806932,54,3.42,20.99
302,Linxia,35.6,103.21,3,CN,1569806933,48,3.67,11.25
303,Bridgetown,-33.96,116.14,27,AU,1569806933,94,0.89,16.67
304,San Felipe,-32.75,-70.73,22,CL,1569806933,99,2.17,11.11
305,Lichtenburg,-26.15,26.16,29,ZA,1569806933,23,5.35,13.17
306,Saint George,39.45,22.34,0,GR,1569806933,93,0.33,16
307,Kichera,55.93,110.1,91,RU,1569806934,95,0.48,1.8
308,Marzuq,14.4,46.47,47,YE,1569806934,52,2.07,23.93
309,La Union,14.97,-89.29,59,GT,1569806934,87,1.58,23.13
310,Byron Bay,-28.65,153.62,40,AU,1569806934,88,5.1,25.56
311,Anlu,31.26,113.68,2,CN,1569806934,47,2.23,23.65
312,Arraial do Cabo,-22.97,-42.02,100,BR,1569806935,88,7.01,19.96
313,Fenyi,27.82,114.69,0,CN,1569806935,51,0.62,22.59
314,Logan,41.73,-111.83,75,US,1569806935,81,2.1,8
315,Lagoa,37.14,-8.45,0,PT,1569806935,59,3.1,21.11
316,Falkenberg,49.86,12.22,90,DE,1569806935,100,3.6,15
317,Manokwari,-0.87,134.08,64,ID,1569806936,67,2.02,26.02
318,Napasar,27.97,73.56,0,IN,1569806936,58,3.47,28.75
319,Mala,-12.66,-76.63,18,PE,1569806936,90,5.93,16.05
320,Mirandopolis,-21.13,-51.1,0,BR,1569806936,27,3.88,25.05
321,Saskylakh,71.97,114.09,0,RU,1569806653,91,0.85,-6.13
322,Victoria,5.28,115.24,75,BN,1569806815,70,1,30
323,Richards Bay,-28.77,32.06,41,ZA,1569806937,83,16.82,21.05
324,Glubczyce,50.2,17.83,0,PL,1569806937,63,5.7,19
325,Horodnytsya,50.81,27.32,87,UA,1569806937,79,3.89,12.3
326,Clyde River,70.47,-68.59,90,CA,1569806937,100,4.1,2
327,Ojinaga,29.56,-104.41,1,US,1569806938,40,3.6,32
328,Bonavista,48.65,-53.11,99,CA,1569806938,87,8.49,11.67
329,Nouadhibou,20.93,-17.03,75,MR,1569806938,93,4.1,19
330,Vila Franca do Campo,37.72,-25.43,75,PT,1569806938,88,6.7,23
331,Antananarivo,-18.91,47.53,20,MG,1569806938,93,2.1,17
332,Danilovka,50.35,44.12,99,RU,1569806939,62,6.45,11.28
333,Ilulissat,69.22,-51.1,29,GL,1569806675,56,2.1,5
334,Hereford,52.06,-2.72,32,GB,1569806939,95,2.18,12.22
335,Marsh Harbour,26.54,-77.06,20,BS,1569806939,74,10.37,27.13
336,Gravdal,59.79,5.78,90,NO,1569806794,93,4.6,11.67
337,Miura,35.17,139.64,75,JP,1569806939,83,2.1,29.44
338,The Pas,53.82,-101.24,90,CA,1569806940,52,2.1,6
339,Dawei,14.07,98.19,0,MM,1569806940,78,2.19,27.16
340,Belaya Gora,68.54,146.19,100,RU,1569806940,72,2.87,-1.66
341,Mabaruma,8.2,-59.78,100,GY,1569806940,95,1.61,24.44
342,Calabozo,8.92,-67.43,94,VE,1569806941,93,1.51,24.37
343,Provost,52.35,-110.26,100,CA,1569806941,59,5.48,2.84
344,Yulara,-25.24,130.99,58,AU,1569806909,9,6.7,30
345,Ola,59.58,151.3,99,RU,1569806941,88,5.38,5.93
346,Ojos de Agua,14.76,-87.65,40,HN,1569806941,88,2.1,23
347,Kupang,-10.16,123.6,20,ID,1569806942,45,5.7,30
348,Bereda,43.27,-7.54,75,ES,1569806942,93,3.1,20.56
349,Diplo,24.47,69.59,100,PK,1569806942,74,2.13,26.87
350,Athens,37.98,23.73,0,GR,1569806942,72,0.9,22.22
351,Podgornoye,57.79,82.64,100,RU,1569806943,97,2.4,3.25
352,Bilibino,68.06,166.44,86,RU,1569806943,85,0.91,-5.93
353,Hun,50.34,4.87,94,BE,1569806943,87,8.2,14
354,Roanoke Rapids,36.46,-77.65,1,US,1569806943,83,2.1,27
355,Necochea,-38.55,-58.74,43,AR,1569806916,83,4.65,18.57
356,Akureyri,65.68,-18.09,0,IS,1569806944,92,1.5,-2
357,Nanuque,-17.84,-40.35,83,BR,1569806944,89,3.16,19.92
358,Moose Factory,51.26,-80.61,75,CA,1569806944,75,1,5
359,Singapore,1.29,103.85,75,MY,1569806732,88,2.1,28
360,Ahuimanu,21.44,-157.84,20,US,1569806906,58,6.7,31
361,Dubai,25.27,55.3,0,AE,1569806882,79,3.1,31
362,Kadoma,34.73,135.6,75,JP,1569806945,70,1,29.44
363,Goulburn,-34.75,149.72,93,AU,1569806945,55,0.89,14.44
364,Mandalgovi,45.76,106.27,12,MN,1569806945,47,3.91,13.61
365,Mana,13.03,5.27,42,NG,1569806945,59,5.79,28.65
366,Santa Isabel do Rio Negro,-0.41,-65.02,50,BR,1569806946,71,1.08,26.07
367,Zemio,5.02,25.13,100,CF,1569806946,98,1.23,19.68
368,San Jose de Rio Tinto,14.93,-85.7,12,HN,1569806946,91,0.73,20.88
369,Qasigiannguit,68.82,-51.19,23,GL,1569806946,56,2.1,5
370,Sistranda,63.73,8.83,75,NO,1569806946,93,1.5,6.11
371,Bay City,43.59,-83.89,90,US,1569806749,82,3.6,14
372,Vryburg,-26.96,24.73,41,ZA,1569806947,47,3.65,11.61
373,Sharanga,57.18,46.54,53,RU,1569806947,95,4.36,3.56
374,Kloulklubed,7.04,134.26,90,PW,1569806947,78,3.6,28
375,Palu,-0.9,119.87,99,ID,1569806948,84,0.89,25.39
376,Kavaratti,10.57,72.64,100,IN,1569806948,71,2.17,27.64
377,Luderitz,-26.65,15.16,44,NA,1569806948,83,10.38,13.41
378,Praia da Vitoria,38.73,-27.07,20,PT,1569806948,94,5.09,20
379,Sioux Lookout,50.1,-91.92,90,CA,1569806948,93,7.7,5
380,Kisesa,-2.55,33.05,75,TZ,1569806949,88,4.1,20
381,Broken Hill,-31.97,141.45,28,AU,1569806949,31,6.2,18
382,Itoman,26.12,127.67,75,JP,1569806949,74,7.2,30
383,Channagiri,14.03,75.92,50,IN,1569806949,95,0.83,19.72
384,Zhangjiakou,40.77,114.88,0,CN,1569806949,61,2.18,13.85
385,Waddan,29.16,16.14,0,LY,1569806950,72,2.4,20.59
386,Nkoteng,4.5,12.12,99,CM,1569806950,99,2.09,19.34
387,Cidreira,-30.17,-50.22,0,BR,1569806950,89,5.89,17.09
388,Machalpur,24.13,76.3,99,IN,1569806950,94,3.97,22.17
389,Abu Samrah,35.3,37.18,0,SY,1569806950,87,2.63,18.12
390,Menomonie,44.88,-91.92,90,US,1569806951,93,4.6,15.56
391,Aden,12.79,45.03,100,YE,1569806856,70,5.41,29.82
392,Springfield,42.1,-72.59,75,US,1569806717,66,1.3,15.56
393,Kayes,14.44,-11.44,20,ML,1569806951,78,3.1,25
394,Opuwo,-18.06,13.84,0,NA,1569806951,81,1.25,11.39
395,Port Hueneme,34.15,-119.2,20,US,1569806952,52,2.6,21
396,Paramonga,-10.68,-77.82,97,PE,1569806952,91,6.2,15.35
397,Lypnyazhka,48.45,31.08,50,UA,1569806952,75,2.99,12.34
398,Jega,12.22,4.38,38,NG,1569806952,66,4.18,28.18
399,Yanam,16.73,82.22,75,IN,1569806952,94,1.5,26
400,Saint-Francois,46.42,3.91,90,FR,1569806953,77,3.6,18
401,Gat,14.69,-16.54,0,SN,1569806953,88,2.1,26
402,Sotnikovo,51.88,107.48,20,RU,1569806953,100,1,2
403,Jennings,-28.93,151.93,30,AU,1569806953,22,0.45,22.22
404,Tsaratanana,-16.8,47.65,93,MG,1569806953,88,0.43,20.54
405,Buenos Aires,-34.61,-58.44,0,AR,1569806953,68,3.1,25
406,Hirara,24.8,125.28,75,JP,1569806954,83,9.3,28
407,Denpasar,-8.65,115.22,20,ID,1569806954,83,4.6,27
408,Muros,42.77,-9.06,90,ES,1569806954,100,2.1,18.89
409,Waipawa,-39.94,176.59,84,NZ,1569806954,66,3.13,16.11
410,Ivot,53.68,34.2,77,RU,1569806955,97,2.71,8.53
411,Tezu,27.93,96.16,100,IN,1569806955,89,0.66,20.53
412,Sabang,13.8,121.11,84,PH,1569806955,77,0.45,30
413,Mezen,65.85,44.24,100,RU,1569806955,88,4.69,5.61
414,Vao,59.1,26.19,66,EE,1569806816,96,4.09,9.14
415,Salalah,17.01,54.1,75,OM,1569806956,88,3.6,27
416,Tiznit,29.7,-9.73,16,MA,1569806956,66,1.41,22.72
417,Berdigestyakh,62.1,126.7,100,RU,1569806956,79,3.67,0.64
418,Alice Springs,-23.7,133.88,0,AU,1569806690,18,6.2,30
419,Mogwase,-25.28,27.22,30,ZA,1569806957,22,0.95,12.61
420,Begun,24.99,75.01,100,IN,1569806957,91,4.6,22.65
421,Mount Gambier,-37.83,140.78,90,AU,1569806957,62,2.6,13
422,Fairbanks,64.84,-147.72,90,US,1569806957,93,1.5,11
423,Faya,18.39,42.45,0,SA,1569806957,55,0.62,19
424,Lluta,-16.02,-72.01,0,PE,1569806958,58,1.5,13
425,Mangrol,25.33,76.51,40,IN,1569806958,94,1.9,25
426,Yarada,17.65,83.27,75,IN,1569806958,94,2.1,26
427,Te Anau,-45.41,167.72,57,NZ,1569806958,59,3.68,6.58
428,Druzhba,52.05,33.94,44,UA,1569806958,93,3.33,9.08
429,Chicama,-7.84,-79.15,90,PE,1569806959,87,4.1,16
430,Kaeo,-35.1,173.78,73,NZ,1569806959,58,3.58,21.11
431,Havoysund,71,24.66,75,NO,1569806959,69,7.2,2
432,Winchester,51.06,-1.31,72,GB,1569806722,93,3.13,12.22
433,Nam Som,17.77,102.19,22,TH,1569806959,78,2.1,27
434,Yangjiang,21.85,111.96,0,CN,1569806959,48,0.98,30.56
435,Saint-Joseph,43.56,6.97,0,FR,1569806960,73,7.2,21
436,Rio Gallegos,-51.62,-69.22,75,AR,1569806912,93,4.6,3
437,Nadym,65.53,72.51,100,RU,1569806960,77,5.19,-0.67
438,Husavik,50.56,-96.99,100,CA,1569806960,98,10.54,5.56
439,Leh,34.16,77.58,95,IN,1569806960,64,0.69,2.32
440,Zhezkazgan,47.8,67.71,0,KZ,1569806883,73,3,-3
441,Redlands,34.06,-117.19,75,US,1569806961,33,5.7,23
442,Ingham,-18.65,146.16,62,AU,1569806961,40,1.17,30
443,Tazovskiy,67.47,78.7,93,RU,1569806961,80,2.87,-0.28
444,Jiangyou,31.78,104.73,40,CN,1569806961,85,1.21,14.78
445,Omboue,-1.57,9.26,100,GA,1569806962,82,7.03,24.71
446,Ricse,48.32,21.97,40,HU,1569806962,82,5.1,15
447,Kaoma,-14.8,24.8,78,ZM,1569806962,16,1.03,16.69
448,High Level,58.52,-117.13,20,CA,1569806962,39,5.7,7
449,Kirakira,-10.46,161.92,64,SB,1569806962,79,7.33,28.21
450,Ewa Beach,21.32,-158.01,1,US,1569806963,52,4.1,31
451,Limbang,4.75,115.01,75,BN,1569806963,83,3.1,30
452,El Viejo,12.66,-87.17,17,NI,1569806963,74,5.63,29.05
453,Sri Aman,1.24,111.46,75,MY,1569806963,94,2.6,25
454,Coahuayana,18.62,-100.35,100,MX,1569806963,99,1.28,21.54
455,Bairnsdale,-37.83,147.63,95,AU,1569806964,54,0.45,14.44
456,Sinazongwe,-17.26,27.46,0,ZM,1569806964,13,2.12,19.31
457,Kedrovyy,56.17,91.82,40,RU,1569806964,93,5,2
458,Sibolga,1.74,98.78,95,ID,1569806964,80,3.25,26.52
459,Maniitsoq,65.42,-52.9,86,GL,1569806964,78,2.69,5.2
460,Fort-Shevchenko,44.51,50.26,98,KZ,1569806965,63,4.9,15.93
461,Hobyo,5.35,48.53,12,SO,1569806965,91,4.92,24.22
462,Anloga,5.79,0.9,20,GH,1569806965,88,2.1,26
463,Guipavas,48.43,-4.4,40,FR,1569806965,93,2.6,13.89
464,Aswan,24.09,32.9,0,EG,1569806966,36,3.6,27
465,Luang Prabang,19.89,102.14,90,LA,1569806966,88,2.1,21
466,Omsukchan,62.53,155.8,100,RU,1569806966,95,2.53,-3.34
467,Kumluca,36.37,30.29,0,TR,1569806966,50,1.84,14.13
468,Sept-Iles,50.2,-66.38,75,CA,1569806834,52,6.2,7
469,Warmbad,50.67,13.08,75,DE,1569806867,93,5.1,16.67
470,Havelock,34.88,-76.9,1,US,1569806967,78,2.33,27.22
471,Umm Kaddadah,13.6,26.69,79,SD,1569806967,39,4.86,29.65
472,Pangnirtung,66.15,-65.72,97,CA,1569806671,92,1.52,2.32
473,Vostok,46.45,135.83,68,RU,1569806967,57,1.39,10.91
474,Marfino,56.07,37.56,90,RU,1569806968,100,2,10
475,Sao Borja,-28.66,-56,0,BR,1569806968,54,4.24,21.97
476,Gumdag,39.2,54.59,0,TM,1569806968,36,4.76,16.99
477,Westport,41.14,-73.36,1,US,1569806968,55,3.1,20
478,Lake Havasu City,34.47,-114.34,1,US,1569806968,14,4.6,27
479,Penzance,50.12,-5.53,38,GB,1569806969,93,4.1,13.89
480,Nieves,24,-103.02,69,MX,1569806969,67,6.64,19.59
481,Malanje,-9.54,16.35,100,AO,1569806969,90,3.25,19.16
482,Egvekinot,66.32,-179.17,43,RU,1569806784,98,1.52,1.12
483,Fougamou,-1.22,10.59,100,GA,1569806969,94,1.42,22.23
484,Mecca,21.43,39.83,64,SA,1569806970,46,0.72,31.07
485,Fasa,28.94,53.65,0,IR,1569806970,49,3.1,21
486,Vardo,39.62,-77.74,1,US,1569806970,56,2.6,23.89
487,Nampula,-15.12,39.26,0,MZ,1569806970,100,4.1,20
488,Storslett,69.77,21.03,100,NO,1569806970,66,7.44,4.13
489,Tallahassee,30.44,-84.28,1,US,1569806971,61,2.39,28.89
490,Qandala,11.47,49.87,24,SO,1569806971,76,0.6,30.12
491,Abu Kamal,34.45,40.92,0,SY,1569806971,38,3.97,23.44
492,Portobelo,9.55,-79.65,40,PA,1569806971,83,3.1,26
493,Ollioules,43.14,5.85,0,FR,1569806972,78,5.1,22
494,Waingapu,-9.65,120.26,39,ID,1569806972,57,4.62,26.31
495,Garissa,-0.46,39.64,80,KE,1569806972,76,4.58,23.9
496,Sabaudia,41.3,13.03,20,IT,1569806972,88,2.6,20
497,Matay,28.42,30.79,0,EG,1569806972,70,5.87,19.86
498,Carroll,-30.99,150.44,52,AU,1569806973,19,2.6,22.22
499,Harper,30.3,-99.24,1,US,1569806885,54,4.6,29.44
500,Broome,52.47,1.45,89,GB,1569806973,93,6.7,12.22
501,Zurrieq,35.83,14.47,20,MT,1569806973,88,2.1,23.33
502,Basco,40.33,-91.2,1,US,1569806973,100,5.1,23
503,Aquiraz,-3.9,-38.39,75,BR,1569806973,78,4.1,26
504,Padang,-0.92,100.36,100,ID,1569806974,85,8.36,25.99
505,Klaksvik,62.23,-6.59,100,FO,1569806974,87,10.3,6
506,Anadyr,64.73,177.51,20,RU,1569806974,69,5,4
507,Mbekenyera,-10,38.98,66,TZ,1569806974,86,2.63,22.81
508,Tigzirt,36.57,4.2,0,DZ,1569806974,36,0.74,20.01
509,Nouakchott,18.08,-15.98,75,MR,1569806975,78,4.6,27
510,Suluq,31.67,20.25,0,LY,1569806975,72,5.04,23.95
511,Dessalines,19.26,-72.52,94,HT,1569806975,75,3.5,28.45
512,Agadir,30.42,-9.58,0,MA,1569806975,56,4.1,22
513,Srednekolymsk,67.46,153.71,100,RU,1569806975,85,3.71,-1.13
514,Port Arthur,29.9,-93.93,1,US,1569806907,83,3.1,27
515,Hokitika,-42.72,170.96,100,NZ,1569806976,79,7.04,11.97
516,Aksarka,66.56,67.8,100,RU,1569806976,98,2.41,0.91
517,Harrison,39.26,-84.82,75,US,1569806976,88,2.6,26.67
518,Guerrero Negro,27.97,-114.04,7,MX,1569806977,83,9.55,19.18
519,Banes,20.96,-75.72,75,CU,1569806909,100,1.5,24
520,Goderich,43.74,-81.71,100,CA,1569806977,69,6.73,12.78
521,San Carlos de Bariloche,-41.13,-71.31,90,AR,1569806977,86,8.7,3
522,Bowen,-20.01,148.25,70,AU,1569806977,45,2.6,30
523,Souillac,45.6,-0.6,90,FR,1569806966,93,1,16
524,Dalmatovo,56.26,62.94,97,RU,1569806978,86,3.74,1.92
525,Leshukonskoye,64.9,45.76,98,RU,1569806978,90,3.3,4.49
526,Aleksandriya,45.09,43.24,87,RU,1569806978,76,3.95,11.18
527,Sao Jose da Coroa Grande,-8.9,-35.15,0,BR,1569806978,92,1.18,21.28
528,Nha Trang,12.24,109.19,94,VN,1569806978,62,1.5,30
529,Takasaki,36.32,139,51,JP,1569806979,83,1.4,25.56
530,Fort Frances,48.61,-93.4,90,CA,1569806979,66,5.7,10
531,Wanning,48.64,13.53,40,AT,1569806979,67,3.6,18.89
532,Port-Gentil,-0.72,8.78,100,GA,1569806980,83,7.1,25
533,Tura,64.27,100.22,100,RU,1569806980,84,1.11,-2.43
534,Hami,42.84,93.51,0,CN,1569806980,26,1.49,19.24
535,Kamenka,48.03,28.7,46,MD,1569806980,93,2.71,7.22
536,Yashkul,46.17,45.34,100,RU,1569806980,81,3.2,12.58
537,Constitucion,23.99,-104.67,90,MX,1569806932,88,3.1,18
538,Mao,19.55,-71.08,75,DO,1569806981,88,3.1,28.33
539,Nhulunbuy,-12.18,136.78,0,AU,1569806981,43,5.28,31
540,Coquimbo,-29.95,-71.34,90,CL,1569806981,82,3.1,13
541,Murdochville,48.96,-65.49,64,CA,1569806981,73,5.47,3.1
542,Khandyga,62.65,135.58,0,RU,1569806982,54,2.37,1.02
543,Mpika,-11.84,31.4,0,ZM,1569806982,41,2.85,18.73
544,La Romana,18.43,-68.97,75,DO,1569806982,94,2.77,25
545,Evensk,61.92,159.24,100,RU,1569806982,96,5.26,-0.5
546,Wanxian,30.8,108.39,57,CN,1569806982,68,1.92,20.44
547,Molln,47.89,14.26,40,AT,1569806983,67,3.6,18.89
548,Am Timan,11.04,20.28,100,TD,1569806983,91,3.01,22.64
549,Hendrina,-26.16,29.72,0,ZA,1569806983,35,3.79,13.89
550,Hay River,60.82,-115.79,20,CA,1569806983,36,7.2,9
551,Guarapari,-20.67,-40.5,75,BR,1569806983,94,1.5,23.89
